{"users":[{"name":"Patricia Lebsack","address":{"street":"Hoeger Mall","suite":"Apt. 692","city":"South Elvis","zipcode":"53919-4257","geo":{"lat":"29.4572","lng":"-164.2990"}},"companyName":"Robel-Corkery","phone":"493-170-9623 x156","distance":16106835.515254345},{"name":"Clementina DuBuque","address":{"street":"Kattie Turnpike","suite":"Suite 198","city":"Lebsackbury","zipcode":"31428-2261","geo":{"lat":"-38.2386","lng":"57.2232"}},"companyName":"Hoeger LLC","phone":"024-648-3804","distance":16106835.515254345}]}
{"users":[{"name":"Patricia Lebsack","address":{"street":"Hoeger Mall","suite":"Apt. 692","city":"South Elvis","zipcode":"53919-4257","geo":{"lat":"29.4572","lng":"-164.2990"}},"companyName":"Robel-Corkery","phone":"493-170-9623 x156","distance":16106835.515254345},{"name":"Clementina DuBuque","address":{"street":"Kattie Turnpike","suite":"Suite 198","city":"Lebsackbury","zipcode":"31428-2261","geo":{"lat":"-38.2386","lng":"57.2232"}},"companyName":"Hoeger LLC","phone":"024-648-3804","distance":16106835.515254345}]}
